{"displayFieldName":"","fieldAliases":{"OBJECTID":"OBJECTID","Name":"Name","Address":"Address","Latitude":"Latitude","Longitude":"Longitude"},"geometryType":"esriGeometryPoint","spatialReference":{"wkid":4326,"latestWkid":4326},"fields":[{"name":"OBJECTID","type":"esriFieldTypeOID","alias":"OBJECTID"},{"name":"Name","type":"esriFieldTypeString","alias":"Name","length":8000},{"name":"Address","type":"esriFieldTypeString","alias":"Address","length":8000},{"name":"Latitude","type":"esriFieldTypeDouble","alias":"Latitude"},{"name":"Longitude","type":"esriFieldTypeDouble","alias":"Longitude"}],"features":[{"attributes":{"OBJECTID":1,"Name":"Leslieville Farmers Market","Address":"150 Greenwood Ave, Toronto","Latitude":43.668611110000001,"Longitude":-79.329499999999996},"geometry":{"x":-79.329499999999939,"y":43.668611110000029}},{"attributes":{"OBJECTID":2,"Name":"Deeply Rooted Farmers Market","Address":"455 Cosburn Ave, East York","Latitude":43.691555559999998,"Longitude":-79.336055560000005},"geometry":{"x":-79.336055559999977,"y":43.69155556000004}},{"attributes":{"OBJECTID":3,"Name":"Sorauren FarmersMarket","Address":"50 Wabash Ave, Toronto","Latitude":43.648055560000003,"Longitude":-79.442944440000005},"geometry":{"x":-79.442944439999962,"y":43.648055560000046}},{"attributes":{"OBJECTID":4,"Name":"Trinity Bellwoods Farmers Market","Address":"Shaw St & Dundas St W, Toronto","Latitude":43.649583329999999,"Longitude":-79.417472219999993},"geometry":{"x":-79.417472219999979,"y":43.649583330000041}},{"attributes":{"OBJECTID":5,"Name":"East York Farmers Market","Address":"850 Coxwell Ave, Toronto","Latitude":43.691444439999998,"Longitude":-79.327416670000005},"geometry":{"x":-79.327416669999934,"y":43.691444440000055}},{"attributes":{"OBJECTID":6,"Name":"Underpass Park Farmers Market","Address":"33 St Lawrence St, Toronto","Latitude":43.655586470000003,"Longitude":-79.354957389999996},"geometry":{"x":-79.354957389999981,"y":43.65558647000006}},{"attributes":{"OBJECTID":7,"Name":"Dufferin Grove FarmersMarket","Address":"875 Dufferin St, Toronto","Latitude":43.657012719999997,"Longitude":-79.433508720000006},"geometry":{"x":-79.433508719999963,"y":43.657012720000068}},{"attributes":{"OBJECTID":8,"Name":"North York Farmers Market","Address":"5100 Yonge St, Toronto","Latitude":43.767847109999998,"Longitude":-79.413104399999995},"geometry":{"x":-79.413104399999952,"y":43.767847110000048}},{"attributes":{"OBJECTID":9,"Name":"Allan Gardens Farmers Market","Address":"160 Gerrard St E, Toronto","Latitude":43.662142039999999,"Longitude":-79.373984179999994},"geometry":{"x":-79.373984179999979,"y":43.662142040000049}},{"attributes":{"OBJECTID":10,"Name":"St. Lawrence Market North Farmers Market","Address":"Front St E & Jarvis St, Toronto","Latitude":43.649559199999999,"Longitude":-79.371738980000003},"geometry":{"x":-79.371738979999975,"y":43.649559200000056}},{"attributes":{"OBJECTID":11,"Name":"Evergreen Saturday Farmers Market","Address":"550 Bayview Ave, Toronto","Latitude":43.684635919999998,"Longitude":-79.365372269999995},"geometry":{"x":-79.365372269999966,"y":43.684635920000062}},{"attributes":{"OBJECTID":12,"Name":"The Stop Farmers Market","Address":"601 Christie St, Toronto","Latitude":43.680262040000002,"Longitude":-79.422860760000006},"geometry":{"x":-79.422860759999935,"y":43.680262040000059}},{"attributes":{"OBJECTID":13,"Name":"Humber Bay Farmers Market","Address":"2225 Lake Shore Blvd W, Toronto","Latitude":43.620337540000001,"Longitude":-79.481587320000003},"geometry":{"x":-79.48158731999996,"y":43.620337540000037}},{"attributes":{"OBJECTID":14,"Name":"Etobicoke Civic Centre Farmers Market","Address":"399 The West Mall, Toronto","Latitude":43.64400689,"Longitude":-79.565098180000007},"geometry":{"x":-79.56509817999995,"y":43.644006890000071}},{"attributes":{"OBJECTID":15,"Name":"Withrow Farmers Market","Address":"725 Logan Ave, Toronto","Latitude":43.676555319999999,"Longitude":-79.347504990000004},"geometry":{"x":-79.347504989999948,"y":43.676555320000034}},{"attributes":{"OBJECTID":16,"Name":"Eglinton Way Farmers Market","Address":"125 Burnaby Blvd, Toronto, ON M5N 1G5","Latitude":43.704408239999999,"Longitude":-79.412532630000001},"geometry":{"x":-79.412532629999987,"y":43.704408240000078}},{"attributes":{"OBJECTID":17,"Name":"Cabbagetown Farmers Market","Address":"191 Winchester St, Toronto, ON M4X 1V4","Latitude":43.66687005,"Longitude":-79.361987929999998},"geometry":{"x":-79.361987929999941,"y":43.666870050000057}},{"attributes":{"OBJECTID":18,"Name":"Davisville Village Market","Address":"14 Acacia Rd, Toronto, ON M4S 2K4","Latitude":43.700225860000003,"Longitude":-79.389717430000005},"geometry":{"x":-79.389717429999962,"y":43.700225860000046}},{"attributes":{"OBJECTID":19,"Name":"Sick Kids Farmers Market","Address":"55 University Ave, Toronto, ON M5J 2H7","Latitude":43.646584709999999,"Longitude":-79.384352719999995},"geometry":{"x":-79.384352719999981,"y":43.64658471000007}},{"attributes":{"OBJECTID":20,"Name":"Scarborough Farmers  Market - Rosebank Park","Address":"1501 Progress Ave, Scarborough, ON M1B 5Z1","Latitude":43.793181580000002,"Longitude":-79.234149209999998},"geometry":{"x":-79.234149209999941,"y":43.793181580000066}},{"attributes":{"OBJECTID":21,"Name":"Montgomeryâ€™s Inn Farmers Market","Address":"4709 Dundas St W, Toronto, ON M9A 1A8","Latitude":43.651728380000002,"Longitude":-79.525764210000006},"geometry":{"x":-79.525764209999977,"y":43.651728380000065}},{"attributes":{"OBJECTID":22,"Name":"Annette Village Farmers Market","Address":"680 Annette St, Toronto, ON M6S 2C5","Latitude":43.659261739999998,"Longitude":-79.484920329999994},"geometry":{"x":-79.484920329999966,"y":43.659261740000034}},{"attributes":{"OBJECTID":23,"Name":"Bloor-Borden Farmers  Market","Address":"300 Borden St, Toronto, ON M5S 2N5","Latitude":43.665085339999997,"Longitude":-79.408709950000002},"geometry":{"x":-79.408709949999945,"y":43.665085340000076}},{"attributes":{"OBJECTID":24,"Name":"Nathan Phillips Square Farmers Market","Address":"100 Queen St W, Toronto, ON M5H 2N3","Latitude":43.652650170000001,"Longitude":-79.383606560000004},"geometry":{"x":-79.383606559999976,"y":43.652650170000072}},{"attributes":{"OBJECTID":25,"Name":"Malvern Farmers Market","Address":" 90 Littles Rd Scarborough, Ontario, M1B 5E2 ","Latitude":43.818634500000002,"Longitude":-79.205411209999994},"geometry":{"x":-79.205411209999966,"y":43.81863450000003}},{"attributes":{"OBJECTID":26,"Name":"East Lynn Park Farmers Market","Address":"1949 Danforth Ave, Toronto, ON M4C 1J4","Latitude":43.684572490000001,"Longitude":-79.315747130000005},"geometry":{"x":-79.315747129999977,"y":43.68457249000005}},{"attributes":{"OBJECTID":27,"Name":"Flemington Community Farmers Market (FoodShare Toronto)","Address":"150 Grenoble Dr, North York, ON M3C 1B9","Latitude":43.713735159999999,"Longitude":-79.326278470000005},"geometry":{"x":-79.326278469999977,"y":43.713735160000056}},{"attributes":{"OBJECTID":28,"Name":"Junction Farmers Market","Address":"275 Keele St, Toronto, ON M6P 2K5","Latitude":43.662258719999997,"Longitude":-79.462536869999994},"geometry":{"x":-79.462536869999951,"y":43.662258720000068}},{"attributes":{"OBJECTID":29,"Name":"Harbourfront Farmers Market","Address":"235 Queens Quay W, Toronto, ON M5J 2G8","Latitude":43.639196490000003,"Longitude":-79.38206151},"geometry":{"x":-79.382061509999971,"y":43.639196490000074}},{"attributes":{"OBJECTID":30,"Name":"Weston Village BIA Farmers Market","Address":"34 John St, York, ON M9N 0B2","Latitude":43.701426480000002,"Longitude":-79.517451840000007},"geometry":{"x":-79.517451839999978,"y":43.701426480000066}},{"attributes":{"OBJECTID":31,"Name":"YZD Farmers Market","Address":"34 Hanover Rd, North York, ON M3K 0E2","Latitude":43.73770537,"Longitude":-79.469573260000004},"geometry":{"x":-79.469573259999947,"y":43.737705370000072}}]}